{"type":"FeatureCollection","features":[{"type":"Feature","properties":{"Name":"Giant Robot Store","Address":"2015 Sawtelle Blvd, Los Angeles, CA 90025, United States"},"geometry":{"type":"Point","coordinates":[-118.443431,34.040408]}},{"type":"Feature","properties":{"Name":"Toy Art Gallery","Address":"1513 Wilcox Ave, Los Angeles, CA 90028, United States"},"geometry":{"type":"Point","coordinates":[-118.3312877,34.0984408]}},{"type":"Feature","properties":{"Name":"Miracle Mile Toys & Gifts","Address":"452 S La Brea Ave, Los Angeles, CA 90036, United States"},"geometry":{"type":"Point","coordinates":[-118.3438615,34.0653838]}},{"type":"Feature","properties":{"Name":"Shop Merci Milo","Address":"6017 Echo St, Los Angeles, CA 90042, United States"},"geometry":{"type":"Point","coordinates":[-118.1879893,34.1107654]}},{"type":"Feature","properties":{"Name":"Kouhigh Toys","Address":"7815 Melrose Ave, Los Angeles, CA 90046, United States"},"geometry":{"type":"Point","coordinates":[-118.3599849,34.0839089]}},{"type":"Feature","properties":{"Name":"Yolk","Address":"3910 W Sunset Blvd, Los Angeles, CA 90029, United States"},"geometry":{"type":"Point","coordinates":[-118.2800356,34.0917402]}},{"type":"Feature","properties":{"Name":"Monkey Pants","Address":"131 Japanese Village Plaza Mall, Los Angeles, CA 90012, United States"},"geometry":{"type":"Point","coordinates":[-118.240494,34.049009]}},{"type":"Feature","properties":{"Name":"Monster Patrol Toys","Address":"321 1st St, Los Angeles, CA 90012, United States"},"geometry":{"type":"Point","coordinates":[-118.2401676,34.0501527]}},{"type":"Feature","properties":{"Name":"Funland Toys/FLT Collectibles","Address":"468 East 4th St, Los Angeles, CA 90013, United States"},"geometry":{"type":"Point","coordinates":[-118.2418031,34.04492219999999]}},{"type":"Feature","properties":{"Name":"Kip's Toyland","Address":"6333 W 3rd St #720, Los Angeles, CA 90036, United States"},"geometry":{"type":"Point","coordinates":[-118.3602961,34.0723051]}},{"type":"Feature","properties":{"Name":"I&S Vintage and Collectibles","Address":"1364 W Sunset Blvd, Los Angeles, CA 90026, United States"},"geometry":{"type":"Point","coordinates":[-118.2516248,34.0732095]}},{"type":"Feature","properties":{"Name":"Soap Plant / Wacko","Address":"4633 Hollywood Blvd, Los Angeles, CA 90027, United States"},"geometry":{"type":"Point","coordinates":[-118.2900113,34.1002565]}},{"type":"Feature","properties":{"Name":"The Acorn Store Santa Monica","Address":"1220 5th St, Santa Monica, CA 90401, United States"},"geometry":{"type":"Point","coordinates":[-118.496969,34.019285]}},{"type":"Feature","properties":{"Name":"Toyz in the Box","Address":"732 S Atlantic Blvd, Los Angeles, CA 90022, United States"},"geometry":{"type":"Point","coordinates":[-118.1567769,34.021654]}},{"type":"Feature","properties":{"Name":"Tom's Toys","Address":"437 N Beverly Dr, Beverly Hills, CA 90210, United States"},"geometry":{"type":"Point","coordinates":[-118.4027651,34.0705742]}},{"type":"Feature","properties":{"Name":"B & B Toymaker Inc.","Address":"300 S Los Angeles St, Los Angeles, CA 90013, United States"},"geometry":{"type":"Point","coordinates":[-118.2446916,34.0482188]}},{"type":"Feature","properties":{"Name":"Evasive Studio","Address":"4712 Whittier Blvd, East Los Angeles, CA 90022, United States"},"geometry":{"type":"Point","coordinates":[-118.1665953,34.0222508]}},{"type":"Feature","properties":{"Name":"JapanLA","Address":"233 S La Brea Ave, Los Angeles, CA 90036, United States"},"geometry":{"type":"Point","coordinates":[-118.3443443,34.0700404]}},{"type":"Feature","properties":{"Name":"Tom's Model","Address":"501 East 4th St, Los Angeles, CA 90013, United States"},"geometry":{"type":"Point","coordinates":[-118.24128,34.0449662]}},{"type":"Feature","properties":{"Name":"Huzzah! Toys","Address":"2122 Lincoln Blvd, Venice, CA 90291, United States"},"geometry":{"type":"Point","coordinates":[-118.4552194,33.9954246]}},{"type":"Feature","properties":{"Name":"The Reckless Unicorn","Address":"2124 Hillhurst Ave, Los Angeles, CA 90027, United States"},"geometry":{"type":"Point","coordinates":[-118.2872286,34.110625]}},{"type":"Feature","properties":{"Name":"indietoy","Address":"246 E Main St, Alhambra, CA 91801, United States"},"geometry":{"type":"Point","coordinates":[-118.1237089,34.0962935]}},{"type":"Feature","properties":{"Name":"Fu-Shing Toy & Gift","Address":"821 N Spring St, Los Angeles, CA 90012, United States"},"geometry":{"type":"Point","coordinates":[-118.236954,34.06261]}},{"type":"Feature","properties":{"Name":"Kouhigh Toys","Address":"3525 W Carson St Spc 402A, Torrance, CA 90503, United States"},"geometry":{"type":"Point","coordinates":[-118.3500937,33.8326402]}},{"type":"Feature","properties":{"Name":"Toy Crazy","Address":"225 26th St #46, Santa Monica, CA 90402, United States"},"geometry":{"type":"Point","coordinates":[-118.4906972,34.0475174]}},{"type":"Feature","properties":{"Name":"Top Canvas Alhambra","Address":"29 N Garfield Ave, Alhambra, CA 91801, United States"},"geometry":{"type":"Point","coordinates":[-118.1274002,34.0957391]}},{"type":"Feature","properties":{"Name":"ToyArena","Address":"521 Coralridge Pl, La Puente, CA 91746, United States"},"geometry":{"type":"Point","coordinates":[-117.986574,34.0323875]}},{"type":"Feature","properties":{"Name":"Big Lou's Toys & Collectibles Mall","Address":"5413 Sepulveda Blvd, Culver City, CA 90230, United States"},"geometry":{"type":"Point","coordinates":[-118.395863,33.994499]}},{"type":"Feature","properties":{"Name":"Toy Mandala","Address":"14555 Ventura Blvd, Sherman Oaks, CA 91403, United States"},"geometry":{"type":"Point","coordinates":[-118.4506208,34.1514045]}},{"type":"Feature","properties":{"Name":"J N Trading Toys","Address":"421 Wall St, Los Angeles, CA 90013, United States"},"geometry":{"type":"Point","coordinates":[-118.2451135,34.0459402]}},{"type":"Feature","properties":{"Name":"Starworld Toys","Address":"217 E 7th St, Los Angeles, CA 90014, United States"},"geometry":{"type":"Point","coordinates":[-118.2496115,34.042955]}},{"type":"Feature","properties":{"Name":"Factory Xtreme","Address":"321 W Katella Ave 137 and #152, Anaheim, CA 92802, United States"},"geometry":{"type":"Point","coordinates":[-117.9115736,33.8047135]}},{"type":"Feature","properties":{"Name":"JVK Die Cast & Hobbies","Address":"2312 Magnolia Blvd, Burbank, CA 91506, United States"},"geometry":{"type":"Point","coordinates":[-118.3331731,34.1723424]}},{"type":"Feature","properties":{"Name":"LDC Toys","Address":"380 S Los Angeles St P23, Los Angeles, CA 90013, United States"},"geometry":{"type":"Point","coordinates":[-118.2455599,34.0471211]}},{"type":"Feature","properties":{"Name":"StockCalifornia Toy Store","Address":"6743 San Fernando Rd, Glendale, CA 91201, United States"},"geometry":{"type":"Point","coordinates":[-118.2955799,34.1710979]}},{"type":"Feature","properties":{"Name":"Lovely Trading LLC","Address":"216 E 3rd St, Los Angeles, CA 90013, United States"},"geometry":{"type":"Point","coordinates":[-118.2443763,34.0481238]}},{"type":"Feature","properties":{"Name":"The Mighty Luchador","Address":"4519 Eagle Rock Blvd, Los Angeles, CA 90041, United States"},"geometry":{"type":"Point","coordinates":[-118.2189466,34.1269539]}},{"type":"Feature","properties":{"Name":"M.S. TOYS","Address":"315 E 7th St, Los Angeles, CA 90014, United States"},"geometry":{"type":"Point","coordinates":[-118.2486092,34.0423967]}},{"type":"Feature","properties":{"Name":"ABC KIDS TOY STORE","Address":"3619 W 3rd St, Los Angeles, CA 90020, United States"},"geometry":{"type":"Point","coordinates":[-118.294941,34.0692451]}},{"type":"Feature","properties":{"Name":"Blast From the Past","Address":"3117 Magnolia Blvd, Burbank, CA 91505, United States"},"geometry":{"type":"Point","coordinates":[-118.3418156,34.16976510000001]}},{"type":"Feature","properties":{"Name":"DKE Toys","Address":"12831 Muscatine St unit a, Pacoima, CA 91331, United States"},"geometry":{"type":"Point","coordinates":[-118.4126759,34.2397628]}},{"type":"Feature","properties":{"Name":"Super Fantasy Land","Address":"3222 Galleria Way, Glendale, CA 91210, United States"},"geometry":{"type":"Point","coordinates":[-118.2568422,34.1458893]}},{"type":"Feature","properties":{"Name":"Revenge Of","Address":"3420 Eagle Rock Blvd Unit #1, Los Angeles, CA 90065, United States"},"geometry":{"type":"Point","coordinates":[-118.2358992,34.1147672]}},{"type":"Feature","properties":{"Name":"Pop Monster Enterprise Inc.","Address":"24416 Crenshaw Blvd # 3, Torrance, CA 90505, United States"},"geometry":{"type":"Point","coordinates":[-118.3275758,33.8034396]}},{"type":"Feature","properties":{"Name":"Phat Collectibles","Address":"301 E Imperial Hwy, La Habra, CA 90631, United States"},"geometry":{"type":"Point","coordinates":[-117.9435565,33.9176047]}},{"type":"Feature","properties":{"Name":"Secret Headquarters","Address":"3137 Glendale Blvd, Los Angeles, CA 90039, United States"},"geometry":{"type":"Point","coordinates":[-118.2623153,34.1169827]}},{"type":"Feature","properties":{"Name":"The Green Bean","Address":"5060 Eagle Rock Blvd, Los Angeles, CA 90041, United States"},"geometry":{"type":"Point","coordinates":[-118.2139881,34.1387144]}},{"type":"Feature","properties":{"Name":"Puzzle Zoo Toy Store","Address":"1411 3rd Street Promenade A, Santa Monica, CA 90401, United States"},"geometry":{"type":"Point","coordinates":[-118.4956292,34.0155096]}},{"type":"Feature","properties":{"Name":"Pink Memory","Address":"3650 W Martin L King Jr # 259A, Los Angeles, CA 90008, United States"},"geometry":{"type":"Point","coordinates":[-118.3361354,34.0111028]}},{"type":"Feature","properties":{"Name":"Tokyo Japanese Lifestyle","Address":"2109 Sawtelle Blvd, Los Angeles, CA 90025, United States"},"geometry":{"type":"Point","coordinates":[-118.4425628,34.0391777]}},{"type":"Feature","properties":{"Name":"J&Z TOYS","Address":"230 Winston St UNIT #30, Los Angeles, CA 90013, United States"},"geometry":{"type":"Point","coordinates":[-118.2463123,34.0457995]}},{"type":"Feature","properties":{"Name":"POP SCV","Address":"28118 Bouquet Canyon Rd, Santa Clarita, CA 91350, United States"},"geometry":{"type":"Point","coordinates":[-118.4971914,34.4505908]}},{"type":"Feature","properties":{"Name":"Tortoise General Store","Address":"12701 Venice Blvd., Los Angeles, CA 90066, United States"},"geometry":{"type":"Point","coordinates":[-118.4382476,34.0016218]}},{"type":"Feature","properties":{"Name":"Giant Toys","Address":"325 Crocker St, Los Angeles, CA 90013, United States"},"geometry":{"type":"Point","coordinates":[-118.2408091,34.0458516]}},{"type":"Feature","properties":{"Name":"Tokyo Japanese Lifestyle","Address":"114 Japanese Village Plaza Mall, Los Angeles, CA 90012, United States"},"geometry":{"type":"Point","coordinates":[-118.2399124,34.0489481]}},{"type":"Feature","properties":{"Name":"Train Shack Inc","Address":"1030 N Hollywood Way, Burbank, CA 91505, United States"},"geometry":{"type":"Point","coordinates":[-118.3472928,34.1689954]}},{"type":"Feature","properties":{"Name":"Odyssey Games Pasadena","Address":"1795 E Colorado Blvd, Pasadena, CA 91106, United States"},"geometry":{"type":"Point","coordinates":[-118.1134108,34.1462523]}}]}