{"type":"FeatureCollection","features":[{"type":"Feature","properties":{"Name":"FAO Schwarz","Address":"30 Rockefeller Plaza, New York, NY 10111, United States"},"geometry":{"type":"Point","coordinates":[-73.979345,40.758761]}},{"type":"Feature","properties":{"Name":"Mary Arnold Toys","Address":"1178 Lexington Ave, New York, NY 10028, United States"},"geometry":{"type":"Point","coordinates":[-73.9582944,40.7760481]}},{"type":"Feature","properties":{"Name":"Grandma's Place","Address":"84 W 120th St, New York, NY 10027, United States"},"geometry":{"type":"Point","coordinates":[-73.9474022,40.8043029]}},{"type":"Feature","properties":{"Name":"West Side Kids","Address":"201 W 84th St, New York, NY 10024, United States"},"geometry":{"type":"Point","coordinates":[-73.976197,40.786612]}},{"type":"Feature","properties":{"Name":"Kidding Around","Address":"60 W 15th St, New York, NY 10011, United States"},"geometry":{"type":"Point","coordinates":[-73.996004,40.737661]}},{"type":"Feature","properties":{"Name":"Learning Express Toys","Address":"1071 3rd Ave, New York, NY 10065, United States"},"geometry":{"type":"Point","coordinates":[-73.9645341,40.7640903]}},{"type":"Feature","properties":{"Name":"Stationery and Toy World","Address":"125 W 72nd St, New York, NY 10023, United States"},"geometry":{"type":"Point","coordinates":[-73.9795944,40.7779989]}},{"type":"Feature","properties":{"Name":"HomBomToys","Address":"1470 1st Ave, New York, NY 10075, United States"},"geometry":{"type":"Point","coordinates":[-73.9536444,40.7706397]}},{"type":"Feature","properties":{"Name":"Toys \"Я\" Us at Macy's","Address":"7th floor, 151 W 34th St., New York, NY 10001, United States"},"geometry":{"type":"Point","coordinates":[-73.98906339999999,40.7508631]}},{"type":"Feature","properties":{"Name":"Zittles","Address":"969 Madison Ave, New York, NY 10021, United States"},"geometry":{"type":"Point","coordinates":[-73.963499,40.7741821]}},{"type":"Feature","properties":{"Name":"Boomerang Toys","Address":"119 W Broadway, New York, NY 10013, United States"},"geometry":{"type":"Point","coordinates":[-74.00836819999999,40.7162672]}},{"type":"Feature","properties":{"Name":"PIQ Rockefeller Center","Address":"74 W 50th St, New York, NY 10112, United States"},"geometry":{"type":"Point","coordinates":[-73.98009859999999,40.7595915]}},{"type":"Feature","properties":{"Name":"POP MART","Address":"C1, LL2315, 185 Greenwich St, New York, NY 10007, United States"},"geometry":{"type":"Point","coordinates":[-74.0114261,40.7115663]}},{"type":"Feature","properties":{"Name":"Playing Mantis","Address":"32 N Moore St, New York, NY 10013, United States"},"geometry":{"type":"Point","coordinates":[-74.0075705,40.7197395]}},{"type":"Feature","properties":{"Name":"Greenpoint Toys","Address":"738 Manhattan Ave, Brooklyn, NY 11222, United States"},"geometry":{"type":"Point","coordinates":[-73.95214039999999,40.7264016]}},{"type":"Feature","properties":{"Name":"Disney Store","Address":"1540 Broadway, New York, NY 10036, United States"},"geometry":{"type":"Point","coordinates":[-73.9850513,40.7582524]}},{"type":"Feature","properties":{"Name":"Toy Tokyo","Address":"91 2nd Ave, New York, NY 10003, United States"},"geometry":{"type":"Point","coordinates":[-73.9890052,40.72708009999999]}},{"type":"Feature","properties":{"Name":"Tenacious Toys","Address":"1483 York Ave #20413, New York, NY 10021, United States"},"geometry":{"type":"Point","coordinates":[-73.9508646,40.7711613]}},{"type":"Feature","properties":{"Name":"Novedades Variety Store","Address":"3393 Broadway, New York, NY 10031, United States"},"geometry":{"type":"Point","coordinates":[-73.9541108,40.8218502]}},{"type":"Feature","properties":{"Name":"Two Kids and a Dog","Address":"275 Greenwich St, New York, NY 10007, United States"},"geometry":{"type":"Point","coordinates":[-74.0109679,40.7151719]}},{"type":"Feature","properties":{"Name":"Modern State","Address":"112 East 86th St, New York, NY 10028, United States"},"geometry":{"type":"Point","coordinates":[-73.9564039,40.77958539999999]}},{"type":"Feature","properties":{"Name":"two kids and a dog","Address":"Grand Central Terminal, 89 E 42nd St, Lexington Ave, New York, NY 10017, United States"},"geometry":{"type":"Point","coordinates":[-73.97728,40.7527556]}},{"type":"Feature","properties":{"Name":"Tamashii Nations Store New York","Address":"1500 Broadway Floor 1, New York, NY 10036, United States"},"geometry":{"type":"Point","coordinates":[-73.98572999999999,40.7565851]}},{"type":"Feature","properties":{"Name":"an.mé /ahn-may/","Address":"328 E 9th St, New York, NY 10003, United States"},"geometry":{"type":"Point","coordinates":[-73.98619839999999,40.7286362]}},{"type":"Feature","properties":{"Name":"the tiny toy company and foundation llc","Address":"Times Sq, New York, NY 10002, United States"},"geometry":{"type":"Point","coordinates":[-73.98372060000001,40.7604863]}},{"type":"Feature","properties":{"Name":"Boys Their Toys Inc","Address":"2253 3rd Ave, New York, NY 10035, United States"},"geometry":{"type":"Point","coordinates":[-73.9366205,40.80209370000001]}},{"type":"Feature","properties":{"Name":"Five Below","Address":"805 Columbus Ave, Manhattan, NY 10025, United States"},"geometry":{"type":"Point","coordinates":[-73.9656011,40.7949468]}},{"type":"Feature","properties":{"Name":"Lisa's On 2Nd Avenue","Address":"1751 2nd Ave Frnt 3, New York, NY 10128, United States"},"geometry":{"type":"Point","coordinates":[-73.9494534,40.7813835]}},{"type":"Feature","properties":{"Name":"PIQ","Address":"20 Hudson Yards 2nd Floor, New York, NY 10001, United States"},"geometry":{"type":"Point","coordinates":[-74.00054109999999,40.7534071]}},{"type":"Feature","properties":{"Name":"Romantic Depot Sex Store, Sex Shop, Adult Store with Adult Toys 1 hour delivery, available! now","Address":"3418 Broadway, New York, NY 10031, United States"},"geometry":{"type":"Point","coordinates":[-73.9531341,40.82222489999999]}},{"type":"Feature","properties":{"Name":"The LEGO® Store Fifth Avenue","Address":"636 5th Ave, New York, NY 10020, United States"},"geometry":{"type":"Point","coordinates":[-73.9771693,40.7591338]}},{"type":"Feature","properties":{"Name":"E.A.T. Gifts","Address":"1062 Madison Ave, New York, NY 10028, United States"},"geometry":{"type":"Point","coordinates":[-73.9616367,40.7772496]}},{"type":"Feature","properties":{"Name":"Little Moony","Address":"230 Mulberry St, New York, NY 10012, United States"},"geometry":{"type":"Point","coordinates":[-73.9959487,40.7224848]}},{"type":"Feature","properties":{"Name":"Midtown Comics Times Square","Address":"200 W 40th St, New York, NY 10018, United States"},"geometry":{"type":"Point","coordinates":[-73.9883862,40.7548485]}},{"type":"Feature","properties":{"Name":"an.mé /ahn-may/","Address":"249 Bleecker St, New York, NY 10014, United States"},"geometry":{"type":"Point","coordinates":[-74.0027423,40.7309732]}},{"type":"Feature","properties":{"Name":"Line Friends New York Times Square Store","Address":"1515 Broadway, New York, NY 10036, United States"},"geometry":{"type":"Point","coordinates":[-73.9858859,40.7578341]}},{"type":"Feature","properties":{"Name":"Five Below","Address":"530 5th Ave, New York, NY 10036, United States"},"geometry":{"type":"Point","coordinates":[-73.979913,40.7551301]}},{"type":"Feature","properties":{"Name":"Build-A-Bear Workshop - FAO Schwarz","Address":"45 Rockefeller Plaza, New York, NY 10112, United States"},"geometry":{"type":"Point","coordinates":[-73.9791656,40.7587479]}},{"type":"Feature","properties":{"Name":"Build-A-Bear Workshop","Address":"22 W 34th St., New York, NY 10001, United States"},"geometry":{"type":"Point","coordinates":[-73.9863041,40.7489911]}},{"type":"Feature","properties":{"Name":"Barnes & Noble","Address":"2289 Broadway, New York, NY 10024, United States"},"geometry":{"type":"Point","coordinates":[-73.9787281,40.7862392]}},{"type":"Feature","properties":{"Name":"American Girl Place New York","Address":"75 Rockefeller Plaza Floor 1, New York, NY 10019, United States"},"geometry":{"type":"Point","coordinates":[-73.9778027,40.7599932]}},{"type":"Feature","properties":{"Name":"Little Things Toy Store","Address":"159 7th Ave, Brooklyn, NY 11215, United States"},"geometry":{"type":"Point","coordinates":[-73.97674719999999,40.672305]}},{"type":"Feature","properties":{"Name":"Promises Fulfilled","Address":"1592 2nd Ave, New York, NY 10028, United States"},"geometry":{"type":"Point","coordinates":[-73.95322639999999,40.7755683]}},{"type":"Feature","properties":{"Name":"Bunnies By The Bay - FAO Schwarz","Address":"30 Rockefeller Plaza, New York, NY 10112, United States"},"geometry":{"type":"Point","coordinates":[-73.9799726,40.7593755]}},{"type":"Feature","properties":{"Name":"Target","Address":"123 W 125th St, New York, NY 10027, United States"},"geometry":{"type":"Point","coordinates":[-73.9469074,40.8085527]}},{"type":"Feature","properties":{"Name":"Midtown Comics Grand Central","Address":"459 Lexington Ave, New York, NY 10017, United States"},"geometry":{"type":"Point","coordinates":[-73.9743859,40.7534322]}},{"type":"Feature","properties":{"Name":"Tees and Toys","Address":"Opp. JD STORE, 6 Times Sq On the corner of Broadway and, W 42nd St, New York, NY 10036, United States"},"geometry":{"type":"Point","coordinates":[-73.9864262,40.7556853]}},{"type":"Feature","properties":{"Name":"Ibiza Kidz","Address":"337 1st Ave, New York, NY 10003, United States"},"geometry":{"type":"Point","coordinates":[-73.9802682,40.73482449999999]}},{"type":"Feature","properties":{"Name":"The LEGO® Store Flatiron District","Address":"200 5th Ave, New York, NY 10010, United States"},"geometry":{"type":"Point","coordinates":[-73.98989019999999,40.7419788]}},{"type":"Feature","properties":{"Name":"Miyooou","Address":"8th floor, 151 W 34th St., New York, NY 10001, United States"},"geometry":{"type":"Point","coordinates":[-73.98906339999999,40.7508631]}},{"type":"Feature","properties":{"Name":"Barnes & Noble","Address":"555 5th Ave, New York, NY 10017, United States"},"geometry":{"type":"Point","coordinates":[-73.9789364,40.7557401]}},{"type":"Feature","properties":{"Name":"Target","Address":"150 East 86th St, New York, NY 10028, United States"},"geometry":{"type":"Point","coordinates":[-73.9550915,40.7791083]}},{"type":"Feature","properties":{"Name":"Montasy Comics NYC","Address":"431 5th Ave 2nd floor, New York, NY 10016, United States"},"geometry":{"type":"Point","coordinates":[-73.9822172,40.7511413]}},{"type":"Feature","properties":{"Name":"Sandy Vohr's Leather Zoo","Address":"89 E 42nd St, New York, NY 10017, United States"},"geometry":{"type":"Point","coordinates":[-73.9773022,40.75249609999999]}},{"type":"Feature","properties":{"Name":"Five Below","Address":"259 W 42nd St, Manhattan, NY 10036, United States"},"geometry":{"type":"Point","coordinates":[-73.98933099999999,40.75720949999999]}},{"type":"Feature","properties":{"Name":"Tommy's Figz","Address":"Turnstyle Underground Market 1000, 8th Ave, New York, NY 10019, United States"},"geometry":{"type":"Point","coordinates":[-73.9828916,40.7670675]}},{"type":"Feature","properties":{"Name":"BOOKOFF New York","Address":"49 W 45th St, New York, NY 10036, United States"},"geometry":{"type":"Point","coordinates":[-73.9814346,40.7563589]}},{"type":"Feature","properties":{"Name":"Retro Kingdom","Address":"424 W 54th St, New York, NY 10019, United States"},"geometry":{"type":"Point","coordinates":[-73.9883924,40.7663263]}},{"type":"Feature","properties":{"Name":"Paper House","Address":"bet, 285 Amsterdam Ave, 73 W 74th St #1a, New York, NY 10023, United States"},"geometry":{"type":"Point","coordinates":[-73.9807556,40.7794998]}},{"type":"Feature","properties":{"Name":"Pink Olive East Village","Address":"439 E 9th St, New York, NY 10009, United States"},"geometry":{"type":"Point","coordinates":[-73.983114,40.7275631]}}]}