{"type":"FeatureCollection","features":[{"type":"Feature","properties":{"Name":"Pop Mart","Address":"China, CN 上海市 黄浦区 西藏中路 268 268号来福士广场地下1层B1-11B 邮政编码: 200003"},"geometry":{"type":"Point","coordinates":[121.47653,31.23196]}},{"type":"Feature","properties":{"Name":"Toys \"R\" Us","Address":"China, Shanghai, Yangpu District, Yangshupu Rd, 2866号上海时尚中心B区227-229号 邮政编码: 200090"},"geometry":{"type":"Point","coordinates":[121.5568197,31.2709988]}},{"type":"Feature","properties":{"Name":"LEGO","Address":"775号淮海青少年用品商场 Huaihai Rd (M), Huangpu, Shanghai, China, 200041"},"geometry":{"type":"Point","coordinates":[121.463768,31.218646]}},{"type":"Feature","properties":{"Name":"Toy Cabin","Address":"China, 75, 人民公园内75号CN 上海市 黄浦区 南京西路 邮政编码: 200003"},"geometry":{"type":"Point","coordinates":[121.47331,31.23231]}},{"type":"Feature","properties":{"Name":"Toys R US","Address":"China, CN 上海市 长宁区 遵义路 100 100号虹桥南丰城南区商场3层318 邮政编码: 200051"},"geometry":{"type":"Point","coordinates":[121.4071,31.20708]}},{"type":"Feature","properties":{"Name":"tomy","Address":"China, Shanghai, Jing'An, 南京西路1618号久光百货6楼"},"geometry":{"type":"Point","coordinates":[121.446997,31.223767]}},{"type":"Feature","properties":{"Name":"Xiaoma Baoli","Address":"China, Shanghai, Huangpu, 830, Nanjing Rd (E), 830号4楼第一百货商店 邮政编码: 200001"},"geometry":{"type":"Point","coordinates":[121.47506,31.23496]}},{"type":"Feature","properties":{"Name":"Toys R US","Address":"New World Department Store, 3层888 Zhenhua Rd, 888, Baoshan, Shanghai, China, 200436"},"geometry":{"type":"Point","coordinates":[121.41118,31.27051]}},{"type":"Feature","properties":{"Name":"Toy City","Address":"690 Changle Rd, Jing'An, Shanghai, China, 200041"},"geometry":{"type":"Point","coordinates":[121.4530255,31.2180263]}},{"type":"Feature","properties":{"Name":"Shanghai Game Jidi","Address":"China, CN 上海市 黄浦区 打浦路 8 8号海华商厦2层218 邮政编码: 200023"},"geometry":{"type":"Point","coordinates":[121.46948,31.20516]}},{"type":"Feature","properties":{"Name":"Jungle Shanghai Dian","Address":"China, CN 上海市 黄浦区 广西北路 248 248号百米香榭商业街2层255室 邮政编码: 200003"},"geometry":{"type":"Point","coordinates":[121.47799,31.23337]}},{"type":"Feature","properties":{"Name":"lego","Address":"China, Shanghai, Jing'An, 南京西路1618号久光百货6楼"},"geometry":{"type":"Point","coordinates":[121.446997,31.223767]}},{"type":"Feature","properties":{"Name":"Hot Toys","Address":"China, 310, Pudong, 小镇CN 上海市迪士尼 邮政编码: 201205"},"geometry":{"type":"Point","coordinates":[121.66272,31.13847]}},{"type":"Feature","properties":{"Name":"Lego","Address":"China, CN 上海市 静安区 共和新路 1868 1868号大宁国际商业广场1层5座 邮政编码: 200070"},"geometry":{"type":"Point","coordinates":[121.453,31.27393]}},{"type":"Feature","properties":{"Name":"Baodaxiang Children's Shopping Center","Address":"685 Nanjing Rd (E), 南京路 Huangpu, Shanghai, China, 200001"},"geometry":{"type":"Point","coordinates":[121.477453,31.235201]}},{"type":"Feature","properties":{"Name":"How 1 Toys Shop","Address":"70 Changping Rd, Jing'An, China, 200071"},"geometry":{"type":"Point","coordinates":[121.45344,31.23900999999999]}},{"type":"Feature","properties":{"Name":"Yeluoli Shanghai Flagship Shop","Address":"685 Nanjing Rd (E), 685, Huangpu, China, 200001"},"geometry":{"type":"Point","coordinates":[121.47746,31.2352]}},{"type":"Feature","properties":{"Name":"Lego Education","Address":"China, Shanghai, Putuo, Daduhe Rd, 196号长风景畔广场L3-5 邮政编码: 200062"},"geometry":{"type":"Point","coordinates":[121.3958472,31.2229783]}},{"type":"Feature","properties":{"Name":"Aier Toy Store","Address":"China, 内 Pudong, 310, Huangzhao Rd, 310号CN 上海市上海迪士尼乐园 邮政编码: 201205"},"geometry":{"type":"Point","coordinates":[121.65665,31.14389]}},{"type":"Feature","properties":{"Name":"Jollily Educational Toys","Address":"227 Xuanhua Rd, Changning District, Shanghai, China, 200031"},"geometry":{"type":"Point","coordinates":[121.4258907,31.217082]}},{"type":"Feature","properties":{"Name":"How 1 Toys Shop","Address":"190 Changle Rd, Lu Wan Qu, Shanghai, China, 200041"},"geometry":{"type":"Point","coordinates":[121.467426,31.222328]}},{"type":"Feature","properties":{"Name":"Xiaowu Toy City","Address":"China, Shang Hai Shi, Huangpu, 四牌楼 Anren St, 1315号, 40 邮政编码: 200120"},"geometry":{"type":"Point","coordinates":[121.49243,31.22838]}},{"type":"Feature","properties":{"Name":"Lego","Address":"Jing'an Imix Park Building No.1, 1层1111弄 Hutai Rd, 1111, Jing'An, Shanghai, China, 200065"},"geometry":{"type":"Point","coordinates":[121.42545,31.28043]}},{"type":"Feature","properties":{"Name":"Lego","Address":"China, Shanghai, 闸北区 Gonghexin Rd, 1481号红墙创意园"},"geometry":{"type":"Point","coordinates":[121.4587331,31.2672173]}},{"type":"Feature","properties":{"Name":"乐高玩具","Address":"1018 Changning Rd, 中山公园 Changning District, Shanghai, China, 200050"},"geometry":{"type":"Point","coordinates":[121.4163833,31.2181998]}},{"type":"Feature","properties":{"Name":"Weizhele Gaojiaoyu","Address":"1309 Meichuan Rd, Putuo, Shanghai, China, 200062"},"geometry":{"type":"Point","coordinates":[121.3790205,31.2446077]}},{"type":"Feature","properties":{"Name":"Toys Idea","Address":"China, Shanghai, Changning District, 2550, Hongqiao Rd, 2550号2层 邮政编码: 200335"},"geometry":{"type":"Point","coordinates":[121.34669,31.19487]}},{"type":"Feature","properties":{"Name":"Shanghai Xinwei Model","Address":"168 Wenmiao Rd, Huangpu, Shanghai, China, 200010"},"geometry":{"type":"Point","coordinates":[121.48879,31.2177]}},{"type":"Feature","properties":{"Name":"Changsheng Cartoon City","Address":"China, Shanghai, Yangpu District, 101, Liaoyuan W Rd, 101-3临号2层 邮政编码: 200092"},"geometry":{"type":"Point","coordinates":[121.5132,31.26888]}},{"type":"Feature","properties":{"Name":"Shanghai Toys Import & Export Co.,Ltd.","Address":"139 Anyuan Rd, Jing'An, Shanghai, China, 200071"},"geometry":{"type":"Point","coordinates":[121.446757,31.2416408]}},{"type":"Feature","properties":{"Name":"Warhammer","Address":"China, CN 上海市 浦东新区 B1 楼 邮政编码: 201204"},"geometry":{"type":"Point","coordinates":[121.54536,31.21883]}},{"type":"Feature","properties":{"Name":"Toy Hehuanyan Plaza","Address":"China, 内 Pudong, 310, Huangzhao Rd, 310号CN 上海市上海迪士尼乐园 邮政编码: 201205"},"geometry":{"type":"Point","coordinates":[121.65696,31.14271999999999]}},{"type":"Feature","properties":{"Name":"Toy Man Jia","Address":"620 Fuzhou Rd, Huangpu, Shanghai, China, 200003"},"geometry":{"type":"Point","coordinates":[121.4787931,31.2326725]}}]}