{"type":"FeatureCollection","features":[{"type":"Feature","properties":{"Name":"POP MART Harajuku Store","Address":"6 Chome-29-10 Jingumae, Shibuya"},"geometry":{"type":"Point","coordinates":[139.7045849,35.6676526]}},{"type":"Feature","properties":{"Name":"Hands Shibuya","Address":"12-18 Udagawacho, Shibuya"},"geometry":{"type":"Point","coordinates":[139.6979319,35.66203369999999]}},{"type":"Feature","properties":{"Name":"Mandarake Shibuya","Address":"Shibuya, Udagawacho, 31−2 渋谷BEAM B2F"},"geometry":{"type":"Point","coordinates":[139.697771,35.6615647]}},{"type":"Feature","properties":{"Name":"Books Kinokuniya Seibu Shibuya Store","Address":"Shibuya, Udagawacho, 21−1 A Building, 7F SEIBU Shibuya Store"},"geometry":{"type":"Point","coordinates":[139.7003333,35.66022480000001]}},{"type":"Feature","properties":{"Name":"Anime Store B-Point Harajuku","Address":"Shibuya, Jingumae, 1 Chome−20−7 ハッピーハーツ １F と２F HappyHearts"},"geometry":{"type":"Point","coordinates":[139.7046396,35.6714226]}},{"type":"Feature","properties":{"Name":"Hands SHIBUYA SCRAMBLE SQUARE Store","Address":"Shibuya, 2 Chome−24−12 Shibuya Scramble Square, ショップ&レストラン10階"},"geometry":{"type":"Point","coordinates":[139.7021636,35.6584466]}},{"type":"Feature","properties":{"Name":"Hello Kitty Japan Shibuya","Address":"Shibuya, Jinnan, 1 Chome−23−10 MAGNET by SHIBUYA109"},"geometry":{"type":"Point","coordinates":[139.700881,35.659716]}},{"type":"Feature","properties":{"Name":"MEDICOM TOY PLUS","Address":"Shibuya, Jingumae, 4 Chome−12−10 表参道ヒルズ西館 B2F"},"geometry":{"type":"Point","coordinates":[139.7079065,35.667603]}},{"type":"Feature","properties":{"Name":"On Flagship Store Tokyo Cat Street","Address":"5 Chome-17-27 Jingumae, Shibuya"},"geometry":{"type":"Point","coordinates":[139.7057728,35.6661769]}},{"type":"Feature","properties":{"Name":"SOOTANG HOBBY OMOTESANDO","Address":"4 Chome-26-12 Jingumae, Shibuya"},"geometry":{"type":"Point","coordinates":[139.7073077,35.6685937]}},{"type":"Feature","properties":{"Name":"Pokemon Center Shibuya","Address":"Shibuya, Udagawacho, 15−1 渋谷PARCO 6F"},"geometry":{"type":"Point","coordinates":[139.6984408,35.6619557]}},{"type":"Feature","properties":{"Name":"The Tintin Shop Tokyo","Address":"Shibuya, Jingumae, 5 Chome−12−12 J Wing Left 1F"},"geometry":{"type":"Point","coordinates":[139.7066636,35.6665887]}},{"type":"Feature","properties":{"Name":"Yodobashi Camera Shinjuku West Main Store","Address":"1 Chome-11-1 Nishishinjuku, Shinjuku City"},"geometry":{"type":"Point","coordinates":[139.6980314,35.6898878]}},{"type":"Feature","properties":{"Name":"POP MART 渋谷PARCO店","Address":"Shibuya, Udagawacho, 15−1 渋谷PARCO ５F"},"geometry":{"type":"Point","coordinates":[139.6987767,35.6620484]}},{"type":"Feature","properties":{"Name":"TENGA LAND","Address":"Shibuya, Jingumae, 6 Chome−31−21 東急プラザ原宿 ハラカド 2階"},"geometry":{"type":"Point","coordinates":[139.7048989,35.6684254]}},{"type":"Feature","properties":{"Name":"DULTON Jinnan Shop","Address":"Shibuya, Jinnan, 1 Chome−4−8 神南渡辺ビル"},"geometry":{"type":"Point","coordinates":[139.7005678,35.6647278]}},{"type":"Feature","properties":{"Name":"niko and ... TOKYO","Address":"Shibuya, Jingumae, 6 Chome−12−20 1F2F"},"geometry":{"type":"Point","coordinates":[139.7044202,35.6665838]}},{"type":"Feature","properties":{"Name":"TokiiRo 文具×時計 表参道店","Address":"Shibuya, Jingumae, 4 Chome−4−7 長塚ビル 1F"},"geometry":{"type":"Point","coordinates":[139.7114025,35.6669773]}},{"type":"Feature","properties":{"Name":"Flying Tiger Copenhagen Omotesandō","Address":"4 Chome-3-2 Jingumae, Shibuya"},"geometry":{"type":"Point","coordinates":[139.710933,35.6669308]}},{"type":"Feature","properties":{"Name":"okbase高円寺店","Address":"3 Chome-58-27 Koenjiminami, Suginami City"},"geometry":{"type":"Point","coordinates":[139.6488811,35.704291]}},{"type":"Feature","properties":{"Name":"Game Station","Address":"5 Chome-52-15 Nakano, Nakano City"},"geometry":{"type":"Point","coordinates":[139.6657448,35.7094024]}},{"type":"Feature","properties":{"Name":"AKIHABARA KOTOBUKIYA","Address":"Okajima, 1 Chome-8-8 Sotokanda, Chiyoda City"},"geometry":{"type":"Point","coordinates":[139.7704606,35.6992291]}},{"type":"Feature","properties":{"Name":"Yodobashi Akiba","Address":"1-1 Kanda Hanaokacho, Chiyoda City"},"geometry":{"type":"Point","coordinates":[139.774798,35.698917]}},{"type":"Feature","properties":{"Name":"Super Potato Akihabara Branch","Address":"Chiyoda City, Sotokanda, 1 Chome−11−2 北林ビル ３階～５階"},"geometry":{"type":"Point","coordinates":[139.7707015,35.6993585]}},{"type":"Feature","properties":{"Name":"Pineapple Games","Address":"Taito City, Nishiasakusa, 1 Chome−7−19 葉梨ビル B1"},"geometry":{"type":"Point","coordinates":[139.7915101,35.7107898]}},{"type":"Feature","properties":{"Name":"Yodobashi Ueno","Address":"4 Chome-10-10 Ueno, Taito City"},"geometry":{"type":"Point","coordinates":[139.7744334,35.711101]}},{"type":"Feature","properties":{"Name":"Nihombashi Mitsukoshi Main Store","Address":"1 Chome-4-1 Nihonbashimuromachi, Chuo City"},"geometry":{"type":"Point","coordinates":[139.7734296,35.6856332]}},{"type":"Feature","properties":{"Name":"Kenele Stand Akihabara Station","Address":"17-6 Kanda Hanaokacho, Chiyoda City"},"geometry":{"type":"Point","coordinates":[139.773045,35.6986954]}},{"type":"Feature","properties":{"Name":"ケンエレスタンド Echika fit 上野店","Address":"Taito City, Higashiueno, 3 Chome−19−6 銀座線改札内"},"geometry":{"type":"Point","coordinates":[139.7764043,35.711817]}},{"type":"Feature","properties":{"Name":"エルドラード","Address":"Chiyoda City, Sotokanda, 3 Chome−15−6 小暮末広ビル 4F"},"geometry":{"type":"Point","coordinates":[139.7713481,35.7017683]}}]}